[
{
"id":"e1",
"name":"BK MEDINI MALL",
"location":"G14 Ground Floor, Medini Lifestyle Mall, 79000 Nusajaya Johor Malaysia",
"hours": "10.00 a.m - 10.00 p.m"
},
{
"id":"e2",
"name":"BK R&F Mall",
"location":"Lot No. G-027 & G-028 (Ground Floor), R&F Mall, Tanjung Puteri, 80300 Johor Bahru, Johor Darul Takzim Malaysia",
"hours": "10.00 a.m - 10.00 p.m"
},
{
"id":"e3",
"name":"BK TROPICANA GARDEN",
"location":"Lot No. CC-35, Tropicana Garden Mall Malaysia",
"hours": "10.00 a.m - 10.00 p.m"
},
{
"id":"e4",
"name":"BK AEON MELAKA",
"location":"G91 AEON Bandaraya Melaka Shopping Center, Jalan Lagenda, Taman I - Lagenda, 75400 Melaka Malaysia",
"hours": "10.00 a.m - 10.00 p.m"
},
{
"id":"e5",
"name":"BK LUKUT",
"location":"59-60, Ground Floor, Bandar Dataran Segar, Jalan Ds 2/1, Lukut, 71010 Port Dickson, Negeri Sembilan Malaysia",
"hours": "10.00 a.m - 10.00 p.m"
},
{
"id":"e6",
"name":"BK KLIA 2",
"location":"L2M-25, Level 2, Terminal KLIA 2, KL International Airport, Jalan KLIA 2/1, 64000 KLIA Sepang, Selangor Malaysia",
"hours": "24 Hours"
},
{
"id":"e7",
"name":"BK CYBERJAYA",
"location":"Caf√© 1 @ No.1, Block 3545, Jalan Teknokrat 6, 63000 Cyberjaya, Selangor Malaysia",
"hours": "8.00 a.m - 11.00 p.m"
},
{
"id":"e8",
"name":"BK MENARA PERKESO",
"location":"Unit G-03 & G-04, Aras Bawah, Menara PERKESO Putrajaya, Presint 2 Malaysia",
"hours": "7.00a.m - 10.00p.m"
}
]
